  [
    {
      "id": "1012257642",
      "name": "푸라닭 이도점",
      "address": "제주특별자치도 제주시 이도이동 2039-2",
      "phone": "0507-1345-9236",
      "category": "음식점, 치킨,닭강정",
      "latitude": 33.487164,
      "longitude": 126.5329004,
      "image": null
    },
  {
    "id": "1039915955",
    "name": "루스트플레이스 구남점",
    "address": "제주특별자치도 제주시 아라일동 6035-3",
    "phone": "064-758-9004",
    "category": "음식점, 패밀리레스토랑",
    "latitude": 33.485089,
    "longitude": 126.535365,
    "image": null
  },
  {
    "id": "1078335964",
    "name": "GS25 제주구남점",
    "address": "제주특별자치도 제주시 아라일동 6033-10",
    "phone": "064-721-2002",
    "category": "생활,편의, 편의점",
    "latitude": 33.485809,
    "longitude": 126.535716,
    "image": null
  },
  {
    "id": "1093107814",
    "name": "못난이꽈배기 제주이도점",
    "address": "제주특별자치도 제주시 이도이동 1974-14 1층",
    "phone": "064-752-9022",
    "category": "카페,디저트, 베이커리",
    "latitude": 33.4924397,
    "longitude": 126.5401449,
    "image": null
  },
  {
    "id": "1115319257",
    "name": "윤옥 본점",
    "address": "제주특별자치도 제주시 이도이동 2003-3",
    "phone": "0507-1318-4636",
    "category": "일식, 일식당",
    "latitude": 33.4891656,
    "longitude": 126.5357483,
    "image": null
  },
  {
    "id": "1118820365",
    "name": "카미나무",
    "address": "제주특별자치도 제주시 이도이동 1979-19 지하1층",
    "phone": "0507-1339-7172",
    "category": "일식, 돈가스",
    "latitude": 33.4898507,
    "longitude": 126.5401198,
    "image": null
  },
  {
    "id": "1120598395",
    "name": "GS25 구남중앙점",
    "address": "제주특별자치도 제주시 이도이동 2029-1",
    "phone": "070-7543-4520",
    "category": "생활,편의, 편의점",
    "latitude": 33.4881744,
    "longitude": 126.5334528,
    "image": null
  },
  {
    "id": "1128177568",
    "name": "빽다방 제주이도초교점",
    "address": "제주특별자치도 제주시 이도이동 2036-1 1층",
    "phone": "064-723-2279",
    "category": "카페,디저트, 테이크아웃커피",
    "latitude": 33.489045,
    "longitude": 126.5340756,
    "image": null
  },
  {
    "id": "1130705156",
    "name": "대패랑 도남점",
    "address": "제주특별자치도 제주시 도남동 66-4 제주시 도남로 105 대패랑",
    "phone": "",
    "category": "한식, 돼지고기구이",
    "latitude": 33.4909377,
    "longitude": 126.5285426,
    "image": null
  },
  {
    "id": "1142296603",
    "name": "벵삭 제주점",
    "address": "제주특별자치도 제주시 이도이동 1999-3 1층",
    "phone": "0507-1458-1197",
    "category": "일식, 일식당",
    "latitude": 33.4900568,
    "longitude": 126.5361985,
    "image": null
  },
  {
    "id": "1145195490",
    "name": "샤브쌈주머니 제주아라점",
    "address": "제주특별자치도 제주시 아라이동 3011-20 샤브쌈주머니 제주아라점",
    "phone": "0507-1461-7913",
    "category": "일식, 샤브샤브",
    "latitude": 33.4915185,
    "longitude": 126.5426793,
    "image": null
  },
  {
    "id": "1157629793",
    "name": "좋은마트 주공점",
    "address": "제주특별자치도 제주시 이도이동 2034-9",
    "phone": "064-755-3300",
    "category": "쇼핑,유통, 슈퍼,마트",
    "latitude": 33.4890489,
    "longitude": 126.532533,
    "image": null
  },
  {
    "id": "1162679145",
    "name": "타이거타코",
    "address": "제주특별자치도 제주시 이도이동 2026-3 1층",
    "phone": "0507-1432-2689",
    "category": "음식점, 멕시코,남미음식",
    "latitude": 33.487463,
    "longitude": 126.5361092,
    "image": null
  },
  {
    "id": "1167770394",
    "name": "세븐일레븐 제주이도구남로점",
    "address": "제주특별자치도 제주시 이도이동 2007-10",
    "phone": "",
    "category": "생활,편의, 편의점",
    "latitude": 33.4889522,
    "longitude": 126.5385179,
    "image": null
  },
  {
    "id": "1240977340",
    "name": "싱푸미엔관 제주 본점",
    "address": "제주특별자치도 제주시 이도이동 2042-2 1층",
    "phone": "0507-1311-6751",
    "category": "중식, 중식당",
    "latitude": 33.4869817,
    "longitude": 126.5344819,
    "image": null
  },
  {
    "id": "1242636899",
    "name": "탄탄면공방 제주점",
    "address": "제주특별자치도 제주시 아라일동 6034-5 106호",
    "phone": "064-727-7222",
    "category": "음식점, 아시아음식",
    "latitude": 33.4857353,
    "longitude": 126.5343913,
    "image": null
  },
  {
    "id": "1294517984",
    "name": "밥촐림",
    "address": "제주특별자치도 제주시 이도이동 2034-4 1층 밥촐림",
    "phone": "0507-1386-2001",
    "category": "음식점, 한식",
    "latitude": 33.4895049,
    "longitude": 126.5331819,
    "image": null
  },
  {
    "id": "1297109681",
    "name": "베리모어",
    "address": "제주특별자치도 제주시 이도이동 2004-6 1층",
    "phone": "0507-1391-9497",
    "category": "카페,디저트, 카페",
    "latitude": 33.4889904,
    "longitude": 126.5362828,
    "image": null
  },
  {
    "id": "1304180228",
    "name": "365더바삭",
    "address": "제주특별자치도 제주시 아라일동 6034-5 1층, 101호",
    "phone": "064-722-8969",
    "category": "분식, 종합분식",
    "latitude": 33.485752,
    "longitude": 126.5344964,
    "image": null
  },
  {
    "id": "1309878798",
    "name": "헬시플레저",
    "address": "제주특별자치도 제주시 도남동 68-6 1층 104-2호",
    "phone": "0507-1348-7219",
    "category": "음식점, 카페,디저트",
    "latitude": 33.4900776,
    "longitude": 126.5288238,
    "image": null
  },
  {
    "id": "1327121162",
    "name": "보배반점 제주시청점",
    "address": "제주특별자치도 제주시 이도이동 1987-1 1층 보배반점 제주시청점",
    "phone": "0507-1356-1681",
    "category": "음식점, 중식당",
    "latitude": 33.4908981,
    "longitude": 126.5379885,
    "image": null
  },
  {
    "id": "1328061197",
    "name": "명당양과 구남점",
    "address": "제주특별자치도 제주시 이도이동 2002-14 명당양과 구남점",
    "phone": "064-755-7001",
    "category": "카페,디저트, 베이커리",
    "latitude": 33.4889941,
    "longitude": 126.5349786,
    "image": null
  },
  {
    "id": "1329790407",
    "name": "청미양과점",
    "address": "제주특별자치도 제주시 이도이동 2003-4 1층",
    "phone": "064-722-5446",
    "category": "음식점, 카페,디저트",
    "latitude": 33.4890997,
    "longitude": 126.5358088,
    "image": null
  },
  {
    "id": "1357072723",
    "name": "해피벌스데이미미",
    "address": "제주특별자치도 제주시 도남동 62-4 1층 해피벌스데이미미",
    "phone": "0507-1370-0514",
    "category": "음식점, 카페,디저트",
    "latitude": 33.4914029,
    "longitude": 126.5275387,
    "image": null
  },
  {
    "id": "1370031796",
    "name": "한양고깃집 제주아라점",
    "address": "제주특별자치도 제주시 아라일동 6035-3 1층",
    "phone": "064-722-3009",
    "category": "한식, 육류,고기요리",
    "latitude": 33.4849717,
    "longitude": 126.5353719,
    "image": null
  },
  {
    "id": "1373248429",
    "name": "모리노카메",
    "address": "제주특별자치도 제주시 이도이동 2003-5 1층",
    "phone": "0507-1304-0572",
    "category": "일식, 일식당",
    "latitude": 33.488991,
    "longitude": 126.5359254,
    "image": null
  },
  {
    "id": "1384138938",
    "name": "청연디저트",
    "address": "제주특별자치도 제주시 아라일동 6034-5 1층, 청연디저트",
    "phone": "0507-1350-3057",
    "category": "음식점, 카페,디저트",
    "latitude": 33.4856344,
    "longitude": 126.5345371,
    "image": null
  },
  {
    "id": "1384217228",
    "name": "노마스",
    "address": "제주특별자치도 제주시 이도이동 2002-2 1층()",
    "phone": "064-724-5214",
    "category": "음식점, 브런치",
    "latitude": 33.4888682,
    "longitude": 126.5354373,
    "image": null
  },
  {
    "id": "1397606169",
    "name": "얌샘김밥 제주이도점",
    "address": "제주특별자치도 제주시 이도이동 2008-4 1층 101호",
    "phone": "070-4548-3378",
    "category": "음식점, 분식",
    "latitude": 33.4887111,
    "longitude": 126.5383484,
    "image": null
  },
  {
    "id": "1400165386",
    "name": "이도시장통닭",
    "address": "제주특별자치도 제주시 이도이동 1028-7 1층 이도통닭",
    "phone": "0507-1396-8211",
    "category": "음식점, 치킨,닭강정",
    "latitude": 33.4910352,
    "longitude": 126.5348501,
    "image": null
  },
  {
    "id": "1421648004",
    "name": "오쿠다",
    "address": "제주특별자치도 제주시 이도이동 2025-10 1층",
    "phone": "064-724-7752",
    "category": "한식, 전복요리",
    "latitude": 33.4869573,
    "longitude": 126.5358564,
    "image": null
  },
  {
    "id": "1448769768",
    "name": "요제부",
    "address": "제주특별자치도 제주시 이도이동 1999-14 1층",
    "phone": "0507-1337-6120",
    "category": "음식점, 양식",
    "latitude": 33.4896571,
    "longitude": 126.5356502,
    "image": null
  },
  {
    "id": "1462634392",
    "name": "불타는여고24시떡볶이 중앙여고점",
    "address": "제주특별자치도 제주시 이도이동 1979-22",
    "phone": "0504-3139-1524",
    "category": "분식, 불타는여고24시떡볶이",
    "latitude": 33.4899275,
    "longitude": 126.5401863,
    "image": null
  },
  {
    "id": "1464106185",
    "name": "애삐리바당",
    "address": "제주특별자치도 제주시 도남동 62-6 1층",
    "phone": "064-721-5353",
    "category": "음식점, 한식",
    "latitude": 33.4914811,
    "longitude": 126.5278536,
    "image": null
  },
  {
    "id": "1470602455",
    "name": "루딕",
    "address": "제주특별자치도 제주시 이도이동 2004-7 1층",
    "phone": "0507-1418-0547",
    "category": "음식점, 양식",
    "latitude": 33.4891286,
    "longitude": 126.5361646,
    "image": null
  },
  {
    "id": "1500159397",
    "name": "한라산민물장어",
    "address": "제주특별자치도 제주시 도남동 64",
    "phone": "064-726-0088",
    "category": "한식, 장어,먹장어요리",
    "latitude": 33.4912605,
    "longitude": 126.527757,
    "image": null
  },
  {
    "id": "1527848597",
    "name": "BHC치킨 도남점",
    "address": "제주특별자치도 제주시 도남동 66-2 1층",
    "phone": "0507-1356-0031",
    "category": "음식점, 치킨,닭강정",
    "latitude": 33.4911206,
    "longitude": 126.5285969,
    "image": null
  },
  {
    "id": "1539214258",
    "name": "엣무메",
    "address": "제주특별자치도 제주시 이도이동 2004-6 1층",
    "phone": "0507-1439-1133",
    "category": "음식점, 카페,디저트",
    "latitude": 33.4889904,
    "longitude": 126.5362828,
    "image": null
  },
  {
    "id": "1557487605",
    "name": "더마실",
    "address": "제주특별자치도 제주시 이도이동 2021-10 1층",
    "phone": "0507-1318-2905",
    "category": "음식점, 카페,디저트",
    "latitude": 33.4866632,
    "longitude": 126.5374783,
    "image": null
  },
  {
    "id": "1565861024",
    "name": "제주정낭집 이도점",
    "address": "제주특별자치도 제주시 이도이동 2036-9",
    "phone": "0507-1436-1381",
    "category": "한식, 낙지요리",
    "latitude": 33.4882767,
    "longitude": 126.5331639,
    "image": null
  },
  {
    "id": "1603892905",
    "name": "산아",
    "address": "제주특별자치도 제주시 이도이동 2002-13",
    "phone": "064-757-4043",
    "category": "술집, 요리주점",
    "latitude": 33.4888235,
    "longitude": 126.5351771,
    "image": null
  },
  {
    "id": "1628519240",
    "name": "고향각재기",
    "address": "제주특별자치도 제주시 이도이동 1987-9",
    "phone": "064-756-7929",
    "category": "음식점, 한식",
    "latitude": 33.4895587,
    "longitude": 126.5391613,
    "image": null
  },
  {
    "id": "1631575384",
    "name": "구름위에둥둥",
    "address": "제주특별자치도 제주시 이도이동 2029-1 1층",
    "phone": "0507-1312-3786",
    "category": "음식점, 카페,디저트",
    "latitude": 33.4881332,
    "longitude": 126.5334479,
    "image": null
  },
  {
    "id": "1631836022",
    "name": "제주쇠막",
    "address": "제주특별자치도 제주시 이도이동 2041-1 1층 102호",
    "phone": "064-722-8379",
    "category": "한식, 소고기구이",
    "latitude": 33.487892,
    "longitude": 126.533163,
    "image": null
  },
  {
    "id": "16711037",
    "name": "할매추어탕",
    "address": "제주특별자치도 제주시 이도이동 1029-1 할매추어탕",
    "phone": "064-753-9080",
    "category": "한식, 추어탕",
    "latitude": 33.4917258,
    "longitude": 126.5356632,
    "image": null
  },
  {
    "id": "16712582",
    "name": "파리바게뜨 제주법원점",
    "address": "제주특별자치도 제주시 이도이동 1997-1 1층 파리바게뜨",
    "phone": "0507-2093-3407",
    "category": "카페,디저트, 베이커리",
    "latitude": 33.4912471,
    "longitude": 126.5356957,
    "image": null
  },
  {
    "id": "16813241",
    "name": "본가 1호점",
    "address": "제주특별자치도 제주시 도남동 66-1",
    "phone": "064-724-8588",
    "category": "한식, 찌개,전골",
    "latitude": 33.491267,
    "longitude": 126.528477,
    "image": null
  },
  {
    "id": "16814949",
    "name": "CU 도남중앙점",
    "address": "제주특별자치도 제주시 도남동 84-18",
    "phone": "1577-8007",
    "category": "생활,편의, 편의점",
    "latitude": 33.4946982,
    "longitude": 126.52779,
    "image": null
  },
  {
    "id": "1691073387",
    "name": "열정의산보 제주아라점",
    "address": "제주특별자치도 제주시 이도이동 2025-7 1층",
    "phone": "0507-1416-5583",
    "category": "음식점, 양식",
    "latitude": 33.4868258,
    "longitude": 126.535699,
    "image": null
  },
  {
    "id": "1692167546",
    "name": "돼지잡스",
    "address": "제주특별자치도 제주시 이도이동 2035-1 뚜레쥬르 이도초교점 뒷골목, 빨간집 옆",
    "phone": "0507-1470-9279",
    "category": "한식, 육류,고기요리",
    "latitude": 33.489434,
    "longitude": 126.5336195,
    "image": null
  },
  {
    "id": "1711922347",
    "name": "도브다이브",
    "address": "제주특별자치도 제주시 이도이동 1025-4 키친 도브다이브",
    "phone": "0507-1405-2826",
    "category": "음식점, 퓨전음식",
    "latitude": 33.4938001,
    "longitude": 126.5336374,
    "image": null
  },
  {
    "id": "171249003",
    "name": "세븐일레븐 제주구남센터점",
    "address": "제주특별자치도 제주시 이도이동 2013-4",
    "phone": "",
    "category": "생활,편의, 편의점",
    "latitude": 33.4875622,
    "longitude": 126.5366335,
    "image": null
  },
  {
    "id": "1715728630",
    "name": "부온 텐동",
    "address": "제주특별자치도 제주시 이도이동 2000-7 1층 부온",
    "phone": "0507-1402-8931",
    "category": "일식, 일식당",
    "latitude": 33.4893802,
    "longitude": 126.5352647,
    "image": null
  },
  {
    "id": "1718547613",
    "name": "추자섬바당",
    "address": "제주특별자치도 제주시 이도이동 2021-15",
    "phone": "064-702-5292",
    "category": "한식, 생선회",
    "latitude": 33.486739,
    "longitude": 126.5375772,
    "image": null
  },
  {
    "id": "1718681727",
    "name": "남가네설악추어탕 도남점",
    "address": "제주특별자치도 제주시 도남동 62-7",
    "phone": "0507-1486-5588",
    "category": "한식, 추어탕",
    "latitude": 33.4914756,
    "longitude": 126.528103,
    "image": null
  },
  {
    "id": "1733058859",
    "name": "한짓골갈비",
    "address": "제주특별자치도 제주시 이도이동 1991-7 1층 한짓골갈비",
    "phone": "064-753-6667",
    "category": "한식, 육류,고기요리",
    "latitude": 33.4915782,
    "longitude": 126.5384294,
    "image": null
  },
  {
    "id": "1737942740",
    "name": "모드니케이크",
    "address": "제주특별자치도 제주시 이도이동 1028-18 1층 빨간문 모드니케이크",
    "phone": "",
    "category": "카페,디저트, 케이크전문",
    "latitude": 33.4912285,
    "longitude": 126.5352119,
    "image": null
  },
  {
    "id": "1743263663",
    "name": "GS25 제주구남점 ATM",
    "address": "제주특별자치도 제주시 아라일동 6033-10",
    "phone": "",
    "category": "금융,보험, 현금인출기",
    "latitude": 33.485809,
    "longitude": 126.535716,
    "image": null
  },
  {
    "id": "1743551601",
    "name": "클레망스",
    "address": "제주특별자치도 제주시 이도이동 2016-12 클레망스",
    "phone": "",
    "category": "카페,디저트, 케이크전문",
    "latitude": 33.4879497,
    "longitude": 126.5379999,
    "image": null
  },
  {
    "id": "1750647013",
    "name": "채색",
    "address": "제주특별자치도 제주시 이도이동 2004-3",
    "phone": "0507-1383-7116",
    "category": "음식점, 카페,디저트",
    "latitude": 33.4893875,
    "longitude": 126.536185,
    "image": null
  },
  {
    "id": "1764161439",
    "name": "뚜레쥬르 제주이도초교점",
    "address": "제주특별자치도 제주시 이도2동 2034-2",
    "phone": "064-758-0049",
    "category": "카페,디저트, 베이커리",
    "latitude": 33.4895398,
    "longitude": 126.5333209,
    "image": null
  },
  {
    "id": "1769475237",
    "name": "뭉실몽실",
    "address": "제주특별자치도 제주시 이도이동 2014-5 1층",
    "phone": "0507-1345-4161",
    "category": "음식점, 카페,디저트",
    "latitude": 33.4881782,
    "longitude": 126.5376572,
    "image": null
  },
  {
    "id": "1788012394",
    "name": "착한밥상",
    "address": "제주특별자치도 제주시 이도이동 2036-2 1층",
    "phone": "064-722-9589",
    "category": "음식점, 한식뷔페",
    "latitude": 33.4888667,
    "longitude": 126.5342278,
    "image": null
  },
  {
    "id": "1797729099",
    "name": "분위기",
    "address": "제주특별자치도 제주시 도남동 69-1 수선화아파트",
    "phone": "064-721-9295",
    "category": "술집, 맥주,호프",
    "latitude": 33.4892607,
    "longitude": 126.5303315,
    "image": null
  },
  {
    "id": "1801895189",
    "name": "메르베이",
    "address": "제주특별자치도 제주시 이도이동 2025-3 1층 메르베이",
    "phone": "0507-1333-1039",
    "category": "음식점, 카페,디저트",
    "latitude": 33.4869168,
    "longitude": 126.536426,
    "image": null
  },
  {
    "id": "1812376430",
    "name": "돌담아구찜",
    "address": "제주특별자치도 제주시 도남동 97-1 1층",
    "phone": "",
    "category": "음식점, 한식",
    "latitude": 33.4888161,
    "longitude": 126.5298858,
    "image": null
  },
  {
    "id": "1911402731",
    "name": "돈사무소",
    "address": "제주특별자치도 제주시 이도이동 1997-11",
    "phone": "064-702-6369",
    "category": "음식점, 한식",
    "latitude": 33.490571,
    "longitude": 126.5347024,
    "image": null
  },
  {
    "id": "1917361881",
    "name": "일루올레",
    "address": "제주특별자치도 제주시 도남동 68-6",
    "phone": "0507-1421-5514",
    "category": "음식점, 카페,디저트",
    "latitude": 33.4900455,
    "longitude": 126.5288624,
    "image": null
  },
  {
    "id": "1934629029",
    "name": "CU 제주복지로점",
    "address": "제주특별자치도 제주시 도남동 693-3",
    "phone": "1577-8007",
    "category": "생활,편의, 편의점",
    "latitude": 33.489097,
    "longitude": 126.5241772,
    "image": null
  },
  {
    "id": "1942543454",
    "name": "봉분식",
    "address": "제주특별자치도 제주시 이도이동 2001-7 제2동 1층",
    "phone": "0507-1314-7801",
    "category": "분식, 종합분식",
    "latitude": 33.4891968,
    "longitude": 126.5348204,
    "image": null
  },
  {
    "id": "197026611",
    "name": "가시식당 2호점",
    "address": "제주특별자치도 제주시 이도2동 2035-15",
    "phone": "0507-1463-1536",
    "category": "음식점, 한식",
    "latitude": 33.4893261,
    "longitude": 126.5336881,
    "image": null
  },
  {
    "id": "1973783480",
    "name": "세미콜론",
    "address": "제주특별자치도 제주시 아라이동 3012-18 1층 세미콜론",
    "phone": "",
    "category": "음식점, 카페,디저트",
    "latitude": 33.4932242,
    "longitude": 126.5412958,
    "image": null
  },
  {
    "id": "1980740332",
    "name": "안다미로 늘봄 흑염소",
    "address": "제주특별자치도 제주시 이도이동 2015-18 1층",
    "phone": "0507-1397-0609",
    "category": "음식점, 한식",
    "latitude": 33.4869659,
    "longitude": 126.5368792,
    "image": null
  },
  {
    "id": "198489506",
    "name": "황금손가락 이도점",
    "address": "제주특별자치도 제주시 아라이동 3012-1",
    "phone": "0507-1471-3888",
    "category": "일식, 초밥,롤",
    "latitude": 33.4930837,
    "longitude": 126.5411843,
    "image": null
  },
  {
    "id": "1987422309",
    "name": "큰맘할매순대국 제주이도점",
    "address": "제주특별자치도 제주시 아라이동 3011-20",
    "phone": "064-727-8700",
    "category": "육류,고기요리, 순대,순댓국",
    "latitude": 33.4915789,
    "longitude": 126.5426655,
    "image": null
  },
  {
    "id": "19995596",
    "name": "이웃사촌",
    "address": "제주특별자치도 제주시 이도이동 2029-13",
    "phone": "064-752-7722",
    "category": "한식, 오리요리",
    "latitude": 33.487282,
    "longitude": 126.5346228,
    "image": null
  },
  {
    "id": "21099247",
    "name": "떡하니",
    "address": "제주특별자치도 제주시 이도이동 777 이도주공 2단지 상가 5호 떡하니",
    "phone": "064-727-7080",
    "category": "전통식품, 떡,한과",
    "latitude": 33.4909004,
    "longitude": 126.5344197,
    "image": null
  },
  {
    "id": "21635987",
    "name": "루바토",
    "address": "제주특별자치도 제주시 이도이동 2002-7 1층 루바토",
    "phone": "064-756-3246",
    "category": "카페,디저트, 카페",
    "latitude": 33.488501,
    "longitude": 126.5358029,
    "image": null
  },
  {
    "id": "21762635",
    "name": "모리노코에",
    "address": "제주특별자치도 제주시 이도이동 2042-1",
    "phone": "064-723-0099",
    "category": "음식점, 카페,디저트",
    "latitude": 33.487093,
    "longitude": 126.5344124,
    "image": null
  },
  {
    "id": "21855605",
    "name": "CU 제주구남점",
    "address": "제주특별자치도 제주시 이도이동 2028-5",
    "phone": "1577-8007",
    "category": "생활,편의, 편의점",
    "latitude": 33.4873327,
    "longitude": 126.5350428,
    "image": null
  },
  {
    "id": "221894595",
    "name": "이도숯불갈비",
    "address": "제주특별자치도 제주시 이도2동 2002-11",
    "phone": "0507-1401-2320",
    "category": "한식, 돼지고기구이",
    "latitude": 33.4885818,
    "longitude": 126.5354464,
    "image": null
  },
  {
    "id": "31017845",
    "name": "푸라닭 제주이도점",
    "address": "제주특별자치도 제주시 이도이동 2039-2 1층",
    "phone": "064-756-9233",
    "category": "음식점, 치킨,닭강정",
    "latitude": 33.487164,
    "longitude": 126.5329004,
    "image": null
  },
  {
    "id": "31308379",
    "name": "빨간집이도주공점",
    "address": "제주특별자치도 제주시 이도이동 2035-1",
    "phone": "0504-3139-1454",
    "category": "음식점, 한식",
    "latitude": 33.4894287,
    "longitude": 126.5336675,
    "image": null
  },
  {
    "id": "32031444",
    "name": "시장통닭",
    "address": "제주특별자치도 제주시 이도이동 1028-7",
    "phone": "0504-0544-5154",
    "category": "음식점, 치킨,닭강정",
    "latitude": 33.4910352,
    "longitude": 126.5348501,
    "image": null
  },
  {
    "id": "320930171",
    "name": "빵귿",
    "address": "제주특별자치도 제주시 이도이동 2026-18 1층 빵귿",
    "phone": "064-757-0392",
    "category": "카페,디저트, 베이커리",
    "latitude": 33.4871073,
    "longitude": 126.5351147,
    "image": null
  },
  {
    "id": "32710932",
    "name": "킴스커틀렛",
    "address": "제주특별자치도 제주시 이도이동 2032-5",
    "phone": "064-726-0400",
    "category": "일식, 돈가스",
    "latitude": 33.489198,
    "longitude": 126.5341797,
    "image": null
  },
  {
    "id": "33225546",
    "name": "마이티커피",
    "address": "제주특별자치도 제주시 이도이동 2016-15",
    "phone": "064-722-1935",
    "category": "카페,디저트, 카페",
    "latitude": 33.4882461,
    "longitude": 126.5381294,
    "image": null
  },
  {
    "id": "33726727",
    "name": "다가미",
    "address": "제주특별자치도 제주시 도남동 68-2 다솜빌라 1층 다가미",
    "phone": "064-758-5810",
    "category": "분식, 김밥",
    "latitude": 33.4904575,
    "longitude": 126.5286252,
    "image": null
  },
  {
    "id": "33836611",
    "name": "맘스터치 이도점",
    "address": "제주특별자치도 제주시 이도이동 2026-2",
    "phone": "0507-1308-9282",
    "category": "양식, 햄버거",
    "latitude": 33.4875268,
    "longitude": 126.5359768,
    "image": null
  },
  {
    "id": "34300867",
    "name": "CU 제주이도주공점",
    "address": "제주특별자치도 제주시 이도이동 777",
    "phone": "1577-8007",
    "category": "생활,편의, 편의점",
    "latitude": 33.490214,
    "longitude": 126.5322844,
    "image": null
  },
  {
    "id": "34534829",
    "name": "한라향",
    "address": "제주특별자치도 제주시 도남동 64 백록아파트",
    "phone": "064-722-1003",
    "category": "음식점, 한식",
    "latitude": 33.4912713,
    "longitude": 126.5281232,
    "image": null
  },
  {
    "id": "34588070",
    "name": "이도축산종합마트",
    "address": "제주특별자치도 제주시 아라일동 6033-5",
    "phone": "064-723-7082",
    "category": "쇼핑,유통, 정육점",
    "latitude": 33.4863022,
    "longitude": 126.5349117,
    "image": null
  },
  {
    "id": "35369570",
    "name": "에린",
    "address": "제주특별자치도 제주시 도남동 746-3",
    "phone": "070-7670-0021",
    "category": "카페,디저트, 카페",
    "latitude": 33.4899791,
    "longitude": 126.5285179,
    "image": null
  },
  {
    "id": "35696705",
    "name": "재혁이네국수",
    "address": "제주특별자치도 제주시 이도이동 2034-5",
    "phone": "064-702-3456",
    "category": "한식, 국수",
    "latitude": 33.489441,
    "longitude": 126.5330308,
    "image": null
  },
  {
    "id": "36296790",
    "name": "촌뜨기화로구이",
    "address": "제주특별자치도 제주시 도남동 68-6 1층 촌뜨기 화로구이",
    "phone": "0507-1497-8597",
    "category": "한식, 돼지고기구이",
    "latitude": 33.4900049,
    "longitude": 126.5289,
    "image": null
  },
  {
    "id": "36531876",
    "name": "고스란히",
    "address": "제주특별자치도 제주시 이도이동 2031-10",
    "phone": "064-751-5195",
    "category": "카페,디저트, 카페",
    "latitude": 33.488466,
    "longitude": 126.5351701,
    "image": null
  },
  {
    "id": "37750012",
    "name": "더스푼",
    "address": "제주특별자치도 제주시 아라이동 3014-5 1층",
    "phone": "0507-1404-1324",
    "category": "음식점, 이탈리아음식",
    "latitude": 33.4934034,
    "longitude": 126.5411536,
    "image": null
  },
  {
    "id": "38015910",
    "name": "그러므로",
    "address": "제주특별자치도 제주시 이도2동 2026-11 1층 상가 그러므로",
    "phone": "0507-1411-2021",
    "category": "카페,디저트, 커피번",
    "latitude": 33.4871664,
    "longitude": 126.5352075,
    "image": null
  },
  {
    "id": "548407707",
    "name": "빈이네정육점",
    "address": "제주특별자치도 제주시 도남동 64",
    "phone": "064-726-7783",
    "category": "쇼핑,유통, 정육점",
    "latitude": 33.4911468,
    "longitude": 126.5281396,
    "image": null
  },
  {
    "id": "632679666",
    "name": "정다헌",
    "address": "제주특별자치도 제주시 도남동 64",
    "phone": "064-725-2535",
    "category": "음식점, 한식",
    "latitude": 33.4912761,
    "longitude": 126.5279364,
    "image": null
  },
  {
    "id": "68336236",
    "name": "형돈",
    "address": "제주특별자치도 제주시 이도이동 2034-7",
    "phone": "0507-1406-2073",
    "category": "음식점, 한식",
    "latitude": 33.4893384,
    "longitude": 126.5328742,
    "image": null
  },
  {
    "id": "96927892",
    "name": "조끄뜨레 이도점",
    "address": "제주특별자치도 제주시 이도이동 2015-15",
    "phone": "064-724-4257",
    "category": "쇼핑,유통, 슈퍼,마트",
    "latitude": 33.4868699,
    "longitude": 126.5373407,
    "image": null
  },
  {
    "id": "984893574",
    "name": "다동뼈감탕",
    "address": "제주특별자치도 제주시 도남동 746-2",
    "phone": "0507-1411-6456",
    "category": "음식점, 한식",
    "latitude": 33.4898231,
    "longitude": 126.5286529,
    "image": null
  }
]